{
"type": "FeatureCollection",
"crs": { "type": "name", "properties": { "name": "urn:ogc:def:crs:OGC:1.3:CRS84" } },
"features": [
{ "type": "Feature", "properties": { "id": 0, "status": "Existing", "source": "World Bank", "country": "Tanzania", "name": "Kagera", "type": "Hydro", "capacit_MW": null, "operator": null, "year": null }, "geometry": { "type": "Point", "coordinates": [ 31.0933382, -1.196415 ] } },
{ "type": "Feature", "properties": { "id": 1, "status": "Existing", "source": "World Bank", "country": "Tanzania", "name": "Mara North", "type": "Thermal", "capacit_MW": null, "operator": null, "year": null }, "geometry": { "type": "Point", "coordinates": [ 33.806344457608532, -1.519217651665429 ] } },
{ "type": "Feature", "properties": { "id": 2, "status": "Existing", "source": "World Bank", "country": "Tanzania", "name": "Mwanza", "type": "Thermal", "capacit_MW": null, "operator": null, "year": null }, "geometry": { "type": "Point", "coordinates": [ 31.819409143824725, -2.836102637265587 ] } },
{ "type": "Feature", "properties": { "id": 3, "status": "Existing", "source": "World Bank", "country": "Tanzania", "name": "Geita", "type": "Thermal", "capacit_MW": null, "operator": null, "year": null }, "geometry": { "type": "Point", "coordinates": [ 32.166667938232422, -2.866666793823242 ] } },
{ "type": "Feature", "properties": { "id": 4, "status": "Existing", "source": "World Bank", "country": "Tanzania", "name": "Mwadui", "type": "Thermal", "capacit_MW": null, "operator": null, "year": null }, "geometry": { "type": "Point", "coordinates": [ 33.4555475, -3.6740445 ] } },
{ "type": "Feature", "properties": { "id": 5, "status": "Existing", "source": "World Bank", "country": "Tanzania", "name": "Tabora", "type": "Thermal", "capacit_MW": null, "operator": null, "year": null }, "geometry": { "type": "Point", "coordinates": [ 32.8101675, -4.9987746 ] } },
{ "type": "Feature", "properties": { "id": 6, "status": "Existing", "source": "World Bank", "country": "Tanzania", "name": "Symbion", "type": "Thermal", "capacit_MW": null, "operator": null, "year": null }, "geometry": { "type": "Point", "coordinates": [ 36.6823525, -3.4236522 ] } },
{ "type": "Feature", "properties": { "id": 7, "status": "Existing", "source": "World Bank", "country": "Tanzania", "name": "Nyumba ya Mungu", "type": "Hydro", "capacit_MW": null, "operator": null, "year": null }, "geometry": { "type": "Point", "coordinates": [ 37.4403441, -3.8195803 ] } },
{ "type": "Feature", "properties": { "id": 8, "status": "Existing", "source": "World Bank", "country": "Tanzania", "name": "Chutes Pangani I", "type": "Hydro", "capacit_MW": null, "operator": null, "year": null }, "geometry": { "type": "Point", "coordinates": [ 38.759691784504, -5.343275566027487 ] } },
{ "type": "Feature", "properties": { "id": 9, "status": "Existing", "source": "World Bank", "country": "Tanzania", "name": "Chutes Pangani II", "type": "Hydro", "capacit_MW": null, "operator": null, "year": null }, "geometry": { "type": "Point", "coordinates": [ 38.481225781243062, -5.269153170191239 ] } },
{ "type": "Feature", "properties": { "id": 10, "status": "Existing", "source": "World Bank", "country": "Tanzania", "name": "New Pangani", "type": "Hydro", "capacit_MW": null, "operator": null, "year": null }, "geometry": { "type": "Point", "coordinates": [ 38.591509346890959, -5.378960936287418 ] } },
{ "type": "Feature", "properties": { "id": 11, "status": "Existing", "source": "World Bank", "country": "Tanzania", "name": "Hale Tanesco", "type": "Hydro", "capacit_MW": null, "operator": null, "year": null }, "geometry": { "type": "Point", "coordinates": [ 38.635622773150118, -5.225224606056146 ] } },
{ "type": "Feature", "properties": { "id": 12, "status": "Existing", "source": "World Bank", "country": "Tanzania", "name": "Dodoma", "type": "Thermal", "capacit_MW": null, "operator": null, "year": null }, "geometry": { "type": "Point", "coordinates": [ 35.6920019, -6.1824252 ] } },
{ "type": "Feature", "properties": { "id": 13, "status": "Existing", "source": "World Bank", "country": "Tanzania", "name": "Mufindi", "type": "Hydro", "capacit_MW": null, "operator": null, "year": null }, "geometry": { "type": "Point", "coordinates": [ 35.5402297, -7.9807668 ] } },
{ "type": "Feature", "properties": { "id": 14, "status": "Existing", "source": "World Bank", "country": "Tanzania", "name": "Mtera", "type": "Hydro", "capacit_MW": null, "operator": null, "year": null }, "geometry": { "type": "Point", "coordinates": [ 35.891170578822909, -7.096171197430225 ] } },
{ "type": "Feature", "properties": { "id": 15, "status": "Existing", "source": "World Bank", "country": "Tanzania", "name": "Kidata", "type": "Hydro", "capacit_MW": null, "operator": null, "year": null }, "geometry": { "type": "Point", "coordinates": [ 36.970001220703125, -7.679999828338623 ] } },
{ "type": "Feature", "properties": { "id": 16, "status": "Existing", "source": "World Bank", "country": "Tanzania", "name": "Bas Kihansi", "type": "Hydro", "capacit_MW": null, "operator": null, "year": null }, "geometry": { "type": "Point", "coordinates": [ 35.8792647, -8.6122779 ] } },
{ "type": "Feature", "properties": { "id": 17, "status": "Existing", "source": "World Bank", "country": "Tanzania", "name": "Mbeya", "type": "Thermal", "capacit_MW": null, "operator": null, "year": null }, "geometry": { "type": "Point", "coordinates": [ 33.450000762939453, -8.899999618530273 ] } },
{ "type": "Feature", "properties": { "id": 18, "status": "Existing", "source": "World Bank", "country": "Tanzania", "name": "Mchuchuma", "type": "Thermal", "capacit_MW": null, "operator": null, "year": null }, "geometry": { "type": "Point", "coordinates": [ 34.613029716143025, -10.410436671134946 ] } },
{ "type": "Feature", "properties": { "id": 19, "status": "Existing", "source": "World Bank", "country": "Tanzania", "name": "Ruhudji", "type": "Hydro", "capacit_MW": null, "operator": null, "year": null }, "geometry": { "type": "Point", "coordinates": [ 34.779586311911132, -9.462585584742733 ] } },
{ "type": "Feature", "properties": { "id": 20, "status": "Existing", "source": "World Bank", "country": "Tanzania", "name": "Ubungo", "type": "Thermal", "capacit_MW": null, "operator": null, "year": null }, "geometry": { "type": "Point", "coordinates": [ 39.435178624097396, -7.001585328988006 ] } },
{ "type": "Feature", "properties": { "id": 21, "status": "Existing", "source": "World Bank", "country": "Tanzania", "name": "Songas", "type": "Thermal", "capacit_MW": null, "operator": null, "year": null }, "geometry": { "type": "Point", "coordinates": [ 39.305595434461111, -6.938640930655647 ] } },
{ "type": "Feature", "properties": { "id": 22, "status": "Existing", "source": "World Bank", "country": "Tanzania", "name": "Msimbati", "type": "Thermal", "capacit_MW": null, "operator": null, "year": null }, "geometry": { "type": "Point", "coordinates": [ 40.367074753822131, -10.329074981509514 ] } },
{ "type": "Feature", "properties": { "id": 23, "status": "Existing", "source": "World Bank", "country": "Tanzania", "name": "Mtwara", "type": "Thermal", "capacit_MW": null, "operator": null, "year": null }, "geometry": { "type": "Point", "coordinates": [ 40.085851661419994, -10.247692229417703 ] } }
]
}
